[
	{
		"name": "Hlavná Stanica",
		"coordinates": [
			{
				"lat": 48.157684,
				"lon": 17.106800
			},
			{
				"lat": 48.158045,
				"lon": 17.107106
			}
		]
	},
	{
		"name": "Pod stanicou",
		"coordinates": [
			{
				"lat": 48.155812,
				"lon": 17.107482
			},
			{
				"lat": 48.156027,
				"lon": 17.107417
			}
		]
	},
	{
		"name": "Úrad vlády SR",
		"coordinates": [
			{
				"lat": 48.154238,
				"lon": 17.110921
			},
			{
				"lat": 48.154542,
				"lon": 17.110336
			}
		]
	},
	{
		"name": "STU",
		"coordinates": [
			{
				"lat": 48.151074,
				"lon": 17.115867
			},
			{
				"lat": 48.152352,
				"lon": 17.115667
			}
		]
	},
	{
		"name": "Vysoká",
		"coordinates": [
			{
				"lat": 48.148465,
				"lon": 17.112299
			},
			{
				"lat": 48.148747,
				"lon": 17.112954
			}
		]
	},
	{
		"name": "Poštová",
		"coordinates": [
			{
				"lat": 48.146636,
				"lon": 17.108602
			},
			{
				"lat": 48.147176,
				"lon": 17.109778
			}
		]
	},
	{
		"name": "Centrum",
		"coordinates": [
			{
				"lat": 48.144885,
				"lon": 17.112230
			},
			{
				"lat": 48.145197,
				"lon": 17.111628
			}
		]
	},
	{
		"name": "Jesenského",
		"coordinates": [
			{
				"lat": 48.142917,
				"lon": 17.111950
			}
		]
	},
	{
		"name": "Nám. Ľ. Štúra",
		"coordinates": [
			{
				"lat": 48.140189,
				"lon": 17.110088
			}
		]
	},
	{
		"name": "Šafárikovo nám.",
		"coordinates": [
			{
				"lat": 48.141821,
				"lon": 17.115560
			}
		]
	},
	{
		"name": "Blumentál",
		"coordinates": [
			{
				"lat": 48.153981,
				"lon": 17.118994
			},
			{
				"lat": 48.153427,
				"lon": 17.118741
			}
		]
	},
	{
		"name": "Krížna",
		"coordinates": [
			{
				"lat": 48.154915,
				"lon": 17.124006
			},
			{
				"lat": 48.154740,
				"lon": 17.123711
			}
		]
	},
	{
		"name": "Trnavské mýto",
		"coordinates": [
			{
				"lat": 48.157821,
				"lon": 17.127507
			},
			{
				"lat": 48.157617,
				"lon": 17.127147
			}
		]
	},
	{
		"name": "Česká",
		"coordinates": [
			{
				"lat": 48.162003,
				"lon": 17.131821
			},
			{
				"lat": 48.161643,
				"lon": 17.131391
			}
		]
	},
	{
		"name": "Nová doba",
		"coordinates": [
			{
				"lat": 48.165014,
				"lon": 17.134706
			},
			{
				"lat": 48.164634,
				"lon": 17.134277
			}
		]
	},
	{
		"name": "MiÚ Nové Mesto",
		"coordinates": [
			{
				"lat": 48.168506,
				"lon": 17.138075
			},
			{
				"lat": 48.169021,
				"lon": 17.138493
			}
		]
	},
	{
		"name": "Kuchajda",
		"coordinates": [
			{
				"lat": 48.171962,
				"lon": 17.141402
			},
			{
				"lat": 48.171450,
				"lon": 17.140837
			}
		]
	},
	{
		"name": "Odborárska",
		"coordinates": [
			{
				"lat": 48.176702,
				"lon": 17.146256
			},
			{
				"lat": 48.176380,
				"lon": 17.145714
			}
		]
	},
	{
		"name": "Magnetová",
		"coordinates": [
			{
				"lat": 48.179842,
				"lon": 17.154422
			},
			{
				"lat": 48.179327,
				"lon": 17.152774
			}
		]
	},
	{
		"name": "Depo Jurajov dvor",
		"coordinates": [
			{
				"lat": 48.181327,
				"lon": 17.161454
			},
			{
				"lat": 48.181538,
				"lon": 17.161363
			}
		]
	}
]